[
    {
        "id": 21707259,
        "name": " Rumbold's Auto Electrical",
        "latitude": "-35.75089647",
        "longitude": "143.92745550",
        "address_line_1": "27 Tate Dr,",
        "address_line_2": null,
        "city": "kERANG",
        "state": "VIC",
        "postal_code": "3579",
        "country": "Australia",
        "full_address": null,
        "phone": "0439 387 858",
        "website": "https:\/\/rumboldsautoelectrical.com.au\/",
        "email": "rumboldsautoelectrical@gmail.com",
        "description": null,
        "image_url": "https:\/\/rumboldsautoelectrical.com.au\/wp-content\/uploads\/2020\/03\/RAE-Logo-With-blue-bkgrnd-RGB.png",
        "filters": [],
        "custom_fields": []
    },
    {
        "id": 18326363,
        "name": "4x4 Extras Kilmore",
        "latitude": "-37.30979777",
        "longitude": "144.94969679",
        "address_line_1": "142 Powlett St",
        "address_line_2": null,
        "city": "Kilmore",
        "state": "Vic",
        "postal_code": "3764",
        "country": "Australia",
        "full_address": null,
        "phone": "03 5734 3970",
        "website": "https:\/\/4x4extrasonline.com.au\/",
        "email": null,
        "description": null,
        "image_url": "https:\/\/cdn.shopify.com\/s\/files\/1\/0596\/8235\/7447\/files\/4x4_Extra_s_Kilmore_2_100x.png?v=1633584306",
        "filters": [],
        "custom_fields": []
    },
    {
        "id": 18330137,
        "name": "A&J Auto Electrics",
        "latitude": "-37.52289760",
        "longitude": "143.84944127",
        "address_line_1": "26 Old Creswick Road",
        "address_line_2": null,
        "city": "Ballarat",
        "state": "QLD",
        "postal_code": "3350",
        "country": "Australia",
        "full_address": null,
        "phone": "03 5339 9075",
        "website": "http:\/\/www.ajautoelecs.com.au\/",
        "email": null,
        "description": null,
        "image_url": "http:\/\/www.ajautoelecs.com.au\/uploads\/1\/3\/8\/5\/13851173\/a-j-logo-horizontal_1.png",
        "filters": [],
        "custom_fields": []
    },
    {
        "id": 18332995,
        "name": "A2Z 4X4 accessories",
        "latitude": "-24.89135686",
        "longitude": "152.33251209",
        "address_line_1": "65 Enterprise St",
        "address_line_2": null,
        "city": "Svensson Heights",
        "state": "QLD",
        "postal_code": "4670",
        "country": "Australia",
        "full_address": null,
        "phone": "1300 229 494",
        "website": "https:\/\/a2z4x4.com.au\/",
        "email": "sales@a2z4x4.com.au",
        "description": null,
        "image_url": "https:\/\/a2z4x4.com.au\/wp-content\/uploads\/2022\/01\/a2z-4x4-logo-170x73.png",
        "filters": [],
        "custom_fields": []
    },
    {
        "id": 18333000,
        "name": "Adventure 4x4",
        "latitude": "-32.27663997",
        "longitude": "115.74892999",
        "address_line_1": "3 Crocker St",
        "address_line_2": null,
        "city": "Rockingham",
        "state": "WA",
        "postal_code": "6168",
        "country": "Australia",
        "full_address": null,
        "phone": "08 9529 2229",
        "website": "https:\/\/www.adventure4x4.com.au\/",
        "email": "sales@adventure4x4.net.au",
        "description": null,
        "image_url": "https:\/\/www.adventure4x4.com.au\/wp-content\/uploads\/2018\/07\/logo.png",
        "filters": [],
        "custom_fields": []
    },
    {
        "id": 21481894,
        "name": "All Coast Auto Solutions",
        "latitude": "-26.41108807",
        "longitude": "153.04865125",
        "address_line_1": "1\/13 Lionel Donovan Dr,",
        "address_line_2": null,
        "city": "Noosaville",
        "state": "QLD",
        "postal_code": "4566",
        "country": "Australia",
        "full_address": null,
        "phone": "07 5412 2808",
        "website": "https:\/\/www.allcoastautosolutions.com.au\/",
        "email": "info@allcoastautosolutions.com.au",
        "description": null,
        "image_url": "https:\/\/lirp.cdn-website.com\/21eeaad4\/dms3rep\/multi\/opt\/ALLCOASTnewlogo_v1-261w.jpg",
        "filters": [],
        "custom_fields": []
    },
    {
        "id": 18330126,
        "name": "Altapac Kotara",
        "latitude": "-32.93993849",
        "longitude": "151.71018310",
        "address_line_1": "94 Park Ave",
        "address_line_2": null,
        "city": "Kotara",
        "state": "NSW",
        "postal_code": "2289",
        "country": "Australia",
        "full_address": null,
        "phone": "02 4941 4444",
        "website": "https:\/\/www.altapac.com\/",
        "email": "hello@altapac.com",
        "description": null,
        "image_url": "https:\/\/www.altapac.com\/assets\/website_logo.png?1663137311",
        "filters": [],
        "custom_fields": []
    },
    {
        "id": 18326365,
        "name": "AOM Offroad",
        "latitude": "-31.99094984",
        "longitude": "115.94330457",
        "address_line_1": "4\/477 Orrong Rd",
        "address_line_2": null,
        "city": "Welshpool",
        "state": "WA",
        "postal_code": "6106",
        "country": "Australia",
        "full_address": null,
        "phone": "08 6189 3377",
        "website": "https:\/\/www.aomoffroad.com.au\/",
        "email": "sales@aomperth.com.au",
        "description": null,
        "image_url": "https:\/\/static.wixstatic.com\/media\/610eac_1fa16ebe4a474d6e89ff305de83c1c66~mv2.png\/v1\/fill\/w_125,h_50,al_c,q_85,usm_0.66_1.00_0.01,enc_auto\/aom_logo_final.png",
        "filters": [],
        "custom_fields": []
    },
    {
        "id": 21128028,
        "name": "APC4WD",
        "latitude": "-33.76555721",
        "longitude": "150.68590213",
        "address_line_1": "Unit 20 34-36 Abel St",
        "address_line_2": null,
        "city": "Jamisontown",
        "state": "NSW",
        "postal_code": "2750",
        "country": "Australia",
        "full_address": null,
        "phone": "02 4721 4521",
        "website": "https:\/\/www.autopartsco.com.au\/",
        "email": "support@autopartsco.com.au",
        "description": null,
        "image_url": "https:\/\/www.autopartsco.com.au\/assets\/new_logo1.png",
        "filters": [],
        "custom_fields": []
    },
    {
        "id": 21128027,
        "name": "ARB",
        "latitude": "-35.12332749",
        "longitude": "147.39507349",
        "address_line_1": "146 Hammond Ave",
        "address_line_2": null,
        "city": "Wagga Wagga",
        "state": "NSW",
        "postal_code": "2650",
        "country": "Australia",
        "full_address": null,
        "phone": "02 6925 8777",
        "website": "https:\/\/www.arb.com.au\/",
        "email": null,
        "description": null,
        "image_url": "https:\/\/1000logos.net\/wp-content\/uploads\/2021\/05\/ARB-logo.png",
        "filters": [],
        "custom_fields": []
    },
    {
        "id": 18332998,
        "name": "ARB CAPALABA",
        "latitude": "-27.52906023",
        "longitude": "153.20174889",
        "address_line_1": "48 Smith St",
        "address_line_2": null,
        "city": "Capalaba",
        "state": "QLD",
        "postal_code": "4157",
        "country": "Australia",
        "full_address": null,
        "phone": "07 3823 5900",
        "website": "https:\/\/www.arb.com.au\/",
        "email": "sales@arbcapalaba.com.au",
        "description": null,
        "image_url": "https:\/\/scontent.fbne5-1.fna.fbcdn.net\/v\/t39.30808-6\/292184888_716946732835845_6421330454595988786_n.jpg?_nc_cat=110&ccb=1-7&_nc_sid=09cbfe&_nc_ohc=MNjZQh7olqEAX8ZQ584&_nc_ht=scontent.fbne5-1.fna&oh=00_AfAowzMtCceOV1BQ9HevvZ5AaXKESlnx6vJfxplUQu6lxQ&oe=641",
        "filters": [],
        "custom_fields": []
    },
    {
        "id": 18330133,
        "name": "Atlas 4x4, Touring & Mechanical",
        "latitude": "-28.20062892",
        "longitude": "153.53973782",
        "address_line_1": "2\/9 Industry Dr",
        "address_line_2": null,
        "city": "Tweed Heads South",
        "state": "NSW",
        "postal_code": "2486",
        "country": "Australia",
        "full_address": null,
        "phone": "0499 567 912",
        "website": "https:\/\/atlas4x4.com.au\/",
        "email": "info@atlas4x4.com.au",
        "description": null,
        "image_url": "https:\/\/atlas4x4.com.au\/wp-content\/uploads\/2019\/10\/ATLAS-500px-300dpi.png",
        "filters": [],
        "custom_fields": []
    },
    {
        "id": 18330134,
        "name": "Audiocom Albany",
        "latitude": "-35.01611390",
        "longitude": "117.88436500",
        "address_line_1": "107 Lockyer Ave",
        "address_line_2": null,
        "city": "Centennial Park",
        "state": "WA",
        "postal_code": "6330",
        "country": "Australia",
        "full_address": null,
        "phone": "08 9842 2485",
        "website": "https:\/\/www.audiocomalbany.com.au\/",
        "email": "info@audiocomalbany.com.au",
        "description": null,
        "image_url": "https:\/\/images.squarespace-cdn.com\/content\/v1\/612464d5263b3e5edca7f02b\/4f2b17bf-8e29-4612-8639-678f554a9c8f\/aidiocom+logo.png?format=1500w",
        "filters": [],
        "custom_fields": []
    },
    {
        "id": 18330117,
        "name": "AUS 4WD Equipment",
        "latitude": "-31.90618001",
        "longitude": "115.93162003",
        "address_line_1": "320 Collier Rd",
        "address_line_2": null,
        "city": "Bassendean",
        "state": "QLD",
        "postal_code": "6054",
        "country": "Australia",
        "full_address": null,
        "phone": "08 9464 8852",
        "website": "https:\/\/aus4wdequipment.com.au\/",
        "email": null,
        "description": "Major Stockist",
        "image_url": "https:\/\/aus4wdequipment.com.au\/wp-content\/uploads\/2021\/06\/AUS-4WD-Equipment-Logo-With-Hills-and-Car.png.webp",
        "filters": [],
        "custom_fields": []
    },
    {
        "id": 18330114,
        "name": "Auto One Port Augusta",
        "latitude": "-32.49616941",
        "longitude": "137.77226455",
        "address_line_1": "6b Augusta Hwy",
        "address_line_2": null,
        "city": "ort Augusta",
        "state": "SA",
        "postal_code": "5700",
        "country": "Australia",
        "full_address": null,
        "phone": "08 8642 2322",
        "website": "https:\/\/www.autoone.com.au\/",
        "email": "sales@autooneonline.com.au",
        "description": null,
        "image_url": "https:\/\/www.autoone.com.au\/Themes\/BPDTHEME01\/theme-client-updates\/img\/logos\/logo.png",
        "filters": [],
        "custom_fields": []
    },
    {
        "id": 18327599,
        "name": "Autobarn Dubbo",
        "latitude": "-32.24310314",
        "longitude": "148.60656008",
        "address_line_1": "36-42 Erskine St",
        "address_line_2": null,
        "city": "Dubbo",
        "state": "NSW",
        "postal_code": "2830",
        "country": "Australia",
        "full_address": null,
        "phone": "02 6884 4177",
        "website": "https:\/\/autobarn.com.au\/ab\/",
        "email": "sales@dubbo.autobarn.com.au",
        "description": null,
        "image_url": "https:\/\/autobarn.com.au\/ab\/medias\/autobarn-logo.svg?context=bWFzdGVyfGltYWdlc3w0MDA2fGltYWdlL3N2Zyt4bWx8aGNhL2hhZC84Nzk2MzA5NDU0ODc4L2F1dG9iYXJuX2xvZ28uc3ZnfDQxZmRmYjQzMjk4NjJjZDRjODU1NmZlZjZiOGU3ZjQ4ZTQyOGUzY2JiN2Y0NTI2YjI1NDg5ZGUzN2E4MmJmOGE",
        "filters": [],
        "custom_fields": []
    },
    {
        "id": 18330131,
        "name": "Autobarn Traralgon",
        "latitude": "-38.19897399",
        "longitude": "146.53622496",
        "address_line_1": "79 Princes Hwy",
        "address_line_2": null,
        "city": "Traralgon",
        "state": "VIC",
        "postal_code": "3844",
        "country": "Australia",
        "full_address": null,
        "phone": "03 5174 7422",
        "website": "https:\/\/autobarn.com.au\/ab\/store\/32TN?utm_content=traralgon-3844-vic&utm_source=google&utm_medium=organic&utm_campaign=Google%20My%20Business",
        "email": "sales@traralgon.autobarn.com.au",
        "description": null,
        "image_url": "https:\/\/autobarn.com.au\/ab\/medias\/autobarn-logo.svg?context=bWFzdGVyfGltYWdlc3w0MDA2fGltYWdlL3N2Zyt4bWx8aGNhL2hhZC84Nzk2MzA5NDU0ODc4L2F1dG9iYXJuX2xvZ28uc3ZnfDQxZmRmYjQzMjk4NjJjZDRjODU1NmZlZjZiOGU3ZjQ4ZTQyOGUzY2JiN2Y0NTI2YjI1NDg5ZGUzN2E4MmJmOGE",
        "filters": [],
        "custom_fields": []
    },
    {
        "id": 18327610,
        "name": "BAM Garage",
        "latitude": "-27.45739249",
        "longitude": "153.07884496",
        "address_line_1": "1\/220 Beverley St",
        "address_line_2": null,
        "city": "Morningside",
        "state": "QLD",
        "postal_code": "4170",
        "country": "Australia",
        "full_address": null,
        "phone": "07 3899 1853",
        "website": "http:\/\/www.bamgarage.com\/",
        "email": null,
        "description": null,
        "image_url": "http:\/\/www.bamgarage.com\/wp-content\/uploads\/2016\/08-27\/bamgarage-logo.png",
        "filters": [],
        "custom_fields": []
    },
    {
        "id": 18332999,
        "name": "Beaudesert 4x4",
        "latitude": "-27.98130833",
        "longitude": "152.99438312",
        "address_line_1": "3a\/128 Brisbane St",
        "address_line_2": null,
        "city": "Beaudesert",
        "state": "QLD",
        "postal_code": "4285",
        "country": "Australia",
        "full_address": null,
        "phone": "07 5515 9840",
        "website": "https:\/\/www.beaudesert4x4.com.au\/",
        "email": null,
        "description": null,
        "image_url": "https:\/\/static.wixstatic.com\/media\/eed522_108bed67f9714d32a5956a554e13d870~mv2.png\/v1\/crop\/x_0,y_2,w_431,h_131\/fill\/w_468,h_142,al_c,lg_1,q_85,enc_auto\/Picture1.png",
        "filters": [],
        "custom_fields": []
    },
    {
        "id": 18676900,
        "name": "Bendigo 4x4 Home of Ironman",
        "latitude": "-36.79683863",
        "longitude": "144.24258094",
        "address_line_1": "13 Lockwood RD",
        "address_line_2": null,
        "city": "Kangaroo Flat",
        "state": "VIC",
        "postal_code": null,
        "country": "Australia",
        "full_address": null,
        "phone": "03 5447 9881",
        "website": "http:\/\/www.bendigo4x4.com.au",
        "email": " sales@bendigo4x4.com.au",
        "description": null,
        "image_url": null,
        "filters": [],
        "custom_fields": []
    },
    {
        "id": 18333001,
        "name": "Bremer Ford",
        "latitude": "-27.60259791",
        "longitude": "152.82436007",
        "address_line_1": "36 Brisbane Rd",
        "address_line_2": null,
        "city": "Ebbw Vale",
        "state": "QLD",
        "postal_code": "4304",
        "country": "Australia",
        "full_address": null,
        "phone": "07 3816 6700",
        "website": "https:\/\/www.bremerford.com.au\/",
        "email": "sales@bremerford.com.au",
        "description": null,
        "image_url": "https:\/\/web-assets.cdn.dealersolutions.com.au\/modular.multisite.dealer.solutions\/wp-content\/uploads\/2021\/11\/17093419\/ford-logo-150x70-001.png",
        "filters": [],
        "custom_fields": []
    },
    {
        "id": 18327607,
        "name": "Cairns to Cape 4x4",
        "latitude": "-16.93638081",
        "longitude": "145.76410424",
        "address_line_1": "116 Aumuller St",
        "address_line_2": null,
        "city": "Cairns City",
        "state": "QLD",
        "postal_code": "4870",
        "country": "Australia",
        "full_address": null,
        "phone": "07 4053 5900",
        "website": "https:\/\/www.cairnstocape4x4.com\/",
        "email": "sales@ctc4x4.com",
        "description": null,
        "image_url": "https:\/\/www.cairnstocape4x4.com\/include\/resources\/cairnstocape4x4\/images\/i-logo.png",
        "filters": [],
        "custom_fields": []
    },
    {
        "id": 18330107,
        "name": "Core Offroad",
        "latitude": "-32.27656998",
        "longitude": "115.75014001",
        "address_line_1": "31 Dixon Rd",
        "address_line_2": null,
        "city": "Rockingham",
        "state": "WA",
        "postal_code": "6168",
        "country": "Australia",
        "full_address": null,
        "phone": "08 9527 8184",
        "website": "https:\/\/www.coreoffroad.com.au\/",
        "email": "sales@coreoffroad.com.au",
        "description": null,
        "image_url": "https:\/\/www.coreoffroad.com.au\/wp-content\/uploads\/2020\/02\/CORE-OFFROAD_logo_white.png",
        "filters": [],
        "custom_fields": []
    },
    {
        "id": 21228124,
        "name": "Country Tracks 4WD",
        "latitude": "-35.33312582",
        "longitude": "143.55612093",
        "address_line_1": "25 King St",
        "address_line_2": null,
        "city": "Swan Hill",
        "state": "QLD",
        "postal_code": "3585",
        "country": "Australia",
        "full_address": null,
        "phone": "03 5032 1448",
        "website": "https:\/\/www.countrytracks.com.au\/",
        "email": "sales@countrytracks.com.au",
        "description": null,
        "image_url": "https:\/\/www.countrytracks.com.au\/x\/cdn\/?https:\/\/storage.googleapis.com\/production-sitebuilder-v1-0-9\/899\/246899\/UVJuDOY8\/f0820c70a5fb451caff76e65809d3d56",
        "filters": [],
        "custom_fields": []
    },
    {
        "id": 18333010,
        "name": "Courtesy Ford Palmerston North",
        "latitude": "-40.33696238",
        "longitude": "175.59764944",
        "address_line_1": "180 John F Kennedy Drive, Milson",
        "address_line_2": null,
        "city": "Palmerston North",
        "state": "Manawat\u016b-Whanganui",
        "postal_code": "4410",
        "country": "New Zealand",
        "full_address": null,
        "phone": "+64 6 356 8089",
        "website": "https:\/\/www.courtesyfordmanawatu.co.nz\/",
        "email": null,
        "description": null,
        "image_url": "https:\/\/live.dealer-asset.co\/nz1\/websiteasset\/ford-logo-blue.svg",
        "filters": [],
        "custom_fields": []
    },
    {
        "id": 18660631,
        "name": "E.B Elite Auto Electrical & Air-Conditioning",
        "latitude": "-27.86233812",
        "longitude": "153.33183209",
        "address_line_1": "U35\/75 Waterway Dr",
        "address_line_2": null,
        "city": "Coomera",
        "state": "QLD",
        "postal_code": "4209",
        "country": "Australia",
        "full_address": null,
        "phone": "07 5529 7130",
        "website": "https:\/\/ebeliteauto.com.au\/",
        "email": null,
        "description": null,
        "image_url": "https:\/\/ebeliteauto.com.au\/wp-content\/uploads\/2022\/02\/EB-Elite-Auto_Logo_New.png",
        "filters": [],
        "custom_fields": []
    },
    {
        "id": 18330118,
        "name": "EC Offroad",
        "latitude": "-37.84625336",
        "longitude": "145.28480472",
        "address_line_1": "U 1\/2 Melrich Rd",
        "address_line_2": null,
        "city": "Bayswater",
        "state": "VIC",
        "postal_code": "3153",
        "country": "Australia",
        "full_address": null,
        "phone": "1300 504 060",
        "website": "https:\/\/www.ecvisionsound.com\/",
        "email": "sales@ecoffroad.com.au",
        "description": null,
        "image_url": "https:\/\/cdn.shopify.com\/s\/files\/1\/0041\/6209\/3174\/t\/14\/assets\/logo.png?v=30790900128558924101613618801",
        "filters": [],
        "custom_fields": []
    },
    {
        "id": 18330129,
        "name": "Echuca Service Centre & 4x4",
        "latitude": "-36.13995097",
        "longitude": "144.72831299",
        "address_line_1": "1 Northern Hwy",
        "address_line_2": null,
        "city": "Echuca",
        "state": "VIC",
        "postal_code": "3564",
        "country": "Australia",
        "full_address": null,
        "phone": "03 5480 7150",
        "website": "https:\/\/www.echucaservicecentre.repcoservice.net\/?utm_source=GMB_listing&utm_medium=organic",
        "email": null,
        "description": null,
        "image_url": "https:\/\/chassis.imgix.net\/common\/ras-logo.png?auto=format&fit=max&w=128",
        "filters": [],
        "custom_fields": []
    },
    {
        "id": 18327600,
        "name": "Eclipse Ford",
        "latitude": "-37.58296345",
        "longitude": "143.84116942",
        "address_line_1": "1\/15 Albert St",
        "address_line_2": null,
        "city": "Sebastopol",
        "state": "VIC",
        "postal_code": "3356",
        "country": "Australia",
        "full_address": null,
        "phone": "03 5336 1555",
        "website": "https:\/\/www.eclipseford.com.au\/",
        "email": null,
        "description": null,
        "image_url": "https:\/\/web-assets.cdn.dealersolutions.com.au\/modular.multisite.dealer.solutions\/wp-content\/uploads\/sites\/2916\/2022\/02\/17150000\/2018-Eclipse-Ford-Logo-white2.png",
        "filters": [],
        "custom_fields": []
    },
    {
        "id": 18330138,
        "name": "EFS 4x4 Adventure Store",
        "latitude": "-27.59194437",
        "longitude": "152.93054278",
        "address_line_1": "672 Progress Rd",
        "address_line_2": null,
        "city": "Wacol",
        "state": "QLD",
        "postal_code": "4076",
        "country": "Australia",
        "full_address": null,
        "phone": "07 3723 9595",
        "website": "https:\/\/efs4wd.com.au\/",
        "email": null,
        "description": null,
        "image_url": "https:\/\/efs4wd.com.au\/wp-content\/uploads\/2022\/01\/efs-sml.png",
        "filters": [],
        "custom_fields": []
    },
    {
        "id": 18660205,
        "name": "FUSED AUTO ELECTRICAL",
        "latitude": "-27.73915247",
        "longitude": "153.22055269",
        "address_line_1": "48 Business St",
        "address_line_2": null,
        "city": "Yatala",
        "state": "QLD",
        "postal_code": "4207",
        "country": "Australia",
        "full_address": null,
        "phone": "0402 687 810",
        "website": "https:\/\/www.fusedautoelec.com\/",
        "email": null,
        "description": null,
        "image_url": "https:\/\/images.squarespace-cdn.com\/content\/v1\/60322d2797baec38954c3e3a\/1613904037756-W22V2V8BBK77232WNTV4\/fused-social-black.png?format=1500w",
        "filters": [],
        "custom_fields": []
    },
    {
        "id": 18327601,
        "name": "Game Automotive 4x4",
        "latitude": "-12.42563099",
        "longitude": "130.87775996",
        "address_line_1": "432 Stuart Highway",
        "address_line_2": null,
        "city": "Winnellie",
        "state": "NT ",
        "postal_code": "0820",
        "country": "Australia",
        "full_address": null,
        "phone": "08 8984 4377",
        "website": "https:\/\/gameautomotive4x4.com.au\/",
        "email": "ironman4x4@gameautomotive.com.au",
        "description": null,
        "image_url": "https:\/\/gameautomotive4x4.com.au\/wp-content\/uploads\/2023\/02\/GAME-Automotive-logo.webp",
        "filters": [],
        "custom_fields": []
    },
    {
        "id": 18326372,
        "name": "Gibbo's Auto Electrics & Air Conditioning Services",
        "latitude": "-33.03065888",
        "longitude": "151.66129004",
        "address_line_1": "477 Pacific Hwy",
        "address_line_2": null,
        "city": "Belmont",
        "state": "NSW",
        "postal_code": "2280",
        "country": "Australia",
        "full_address": null,
        "phone": "02 4945 4741",
        "website": "https:\/\/www.gibbos.com.au\/?utm_source=google&utm_medium=organic&utm_campaign=gmb",
        "email": "enquiries@gibbos.com.au",
        "description": null,
        "image_url": "https:\/\/lirp.cdn-website.com\/88bbdeba\/dms3rep\/multi\/opt\/Logo+White2-208w.png",
        "filters": [],
        "custom_fields": []
    },
    {
        "id": 18660200,
        "name": "Goldfields Off Road",
        "latitude": "-30.77456001",
        "longitude": "121.44217000",
        "address_line_1": "1\/35 Great Eastern Highway",
        "address_line_2": null,
        "city": "West Kalgoorlie",
        "state": "WA",
        "postal_code": "6430",
        "country": "Australia",
        "full_address": null,
        "phone": "08 9091 4797",
        "website": "http:\/\/www.goldfieldsoffroad.com.au\/",
        "email": "sales@goldfieldsoffroad.com.au",
        "description": null,
        "image_url": "https:\/\/goldfieldsoffroad.com.au\/wp-content\/uploads\/2020\/12\/cropped-cropped-GOR-Logo-Redesign-2020_FINAL_FBLOGO-2.png",
        "filters": [],
        "custom_fields": []
    },
    {
        "id": 18333007,
        "name": "Goldfields Off Road",
        "latitude": "-30.77456001",
        "longitude": "121.44217000",
        "address_line_1": "1\/35 Great Eastern Hwy",
        "address_line_2": null,
        "city": "West Kalgoorlie",
        "state": "WA",
        "postal_code": "6430",
        "country": "Australia",
        "full_address": null,
        "phone": "08 9091 4797",
        "website": "http:\/\/www.goldfieldsoffroad.com.au\/",
        "email": "sales@goldfieldsoffroad.com.au",
        "description": null,
        "image_url": "https:\/\/goldfieldsoffroad.com.au\/wp-content\/uploads\/2020\/12\/cropped-cropped-GOR-Logo-Redesign-2020_FINAL_FBLOGO-2.png",
        "filters": [],
        "custom_fields": []
    },
    {
        "id": 18327603,
        "name": "Gorilla Offroad",
        "latitude": "-33.76976329",
        "longitude": "150.67379112",
        "address_line_1": "2224 Wolseley St",
        "address_line_2": null,
        "city": "Jamisontown",
        "state": "NSW",
        "postal_code": "2750",
        "country": "Australia",
        "full_address": null,
        "phone": "02 4733 6644",
        "website": "https:\/\/gorillaoffroad.com.au\/",
        "email": "info@gorillaoffroad.com.au",
        "description": null,
        "image_url": "https:\/\/gorillaoffroad.com.au\/wp-content\/uploads\/2019\/11\/foril.png",
        "filters": [],
        "custom_fields": []
    },
    {
        "id": 18330111,
        "name": "Harrison 4WD Centre",
        "latitude": "-36.74811156",
        "longitude": "144.30377118",
        "address_line_1": "148 Murphy St",
        "address_line_2": null,
        "city": "East Bendigo",
        "state": "VIC",
        "postal_code": "3550",
        "country": "Australia",
        "full_address": null,
        "phone": "03 5444 1255",
        "website": "http:\/\/www.harrison4wdcentre.com.au\/",
        "email": null,
        "description": null,
        "image_url": "http:\/\/www.harrison4wdcentre.com.au\/assets\/images\/harrison-logo-1-451x128.png",
        "filters": [],
        "custom_fields": []
    },
    {
        "id": 18326374,
        "name": "Hi Tec Auto Elec",
        "latitude": "-32.23953869",
        "longitude": "148.61130373",
        "address_line_1": "86 Myall st",
        "address_line_2": null,
        "city": "Dubbo",
        "state": "NSW",
        "postal_code": "2830",
        "country": "Australia",
        "full_address": null,
        "phone": "02 6882 0018",
        "website": "https:\/\/www.hitecautoelec.com.au",
        "email": "admin@hitecautoelec.com.au",
        "description": null,
        "image_url": "https:\/\/images.squarespace-cdn.com\/content\/v1\/606c34bb7c209d675c84ef9d\/a074df46-a82b-4958-a4c3-306fa2eafd91\/Hi+Tec+Auto+Elec+Website+Header+Logo.png?format=1500w",
        "filters": [],
        "custom_fields": []
    },
    {
        "id": 18330135,
        "name": "Inverell Off Road and Outdoor",
        "latitude": "-29.77405003",
        "longitude": "151.11277553",
        "address_line_1": "41 Vivian St",
        "address_line_2": null,
        "city": "Inverell",
        "state": "QLD",
        "postal_code": "2360",
        "country": "Australia",
        "full_address": null,
        "phone": "02 6721 2672",
        "website": null,
        "email": "sales@inverell4x4.com.au",
        "description": null,
        "image_url": null,
        "filters": [],
        "custom_fields": []
    },
    {
        "id": 18330124,
        "name": "Ipswich City Auto Electrical",
        "latitude": "-27.60541979",
        "longitude": "152.76030859",
        "address_line_1": "16 Flint St",
        "address_line_2": null,
        "city": "North Ipswich",
        "state": "QLD",
        "postal_code": "4305",
        "country": "Australia",
        "full_address": null,
        "phone": "07 3496 1612",
        "website": "https:\/\/ipswichcityautoelectrical.com.au\/",
        "email": "info@ipswichcityautoelectrical.com.au",
        "description": null,
        "image_url": "https:\/\/ipswichcityautoelectrical.com.au\/shared\/content\/uploads\/new-logo-670.png",
        "filters": [],
        "custom_fields": []
    },
    {
        "id": 18327612,
        "name": "Ironman 4x4",
        "latitude": "-38.01336500",
        "longitude": "145.19515909",
        "address_line_1": "2-8 Bessemer Dr",
        "address_line_2": null,
        "city": "Dandenong South",
        "state": "VIC",
        "postal_code": "3175",
        "country": "Australia",
        "full_address": null,
        "phone": "03 8588 6499",
        "website": "https:\/\/www.ironman4x4.com\/",
        "email": null,
        "description": null,
        "image_url": "https:\/\/www.ironman4x4.com\/wp-content\/uploads\/2020\/09\/Ironman-Logo-200px.png",
        "filters": [],
        "custom_fields": []
    },
    {
        "id": 18330113,
        "name": "Ironman 4x4 Brisbane",
        "latitude": "-27.36999765",
        "longitude": "153.05335484",
        "address_line_1": "160 Robinson Rd E",
        "address_line_2": null,
        "city": "Geebung",
        "state": "QLD",
        "postal_code": "4034",
        "country": "Australia",
        "full_address": null,
        "phone": "07 3265 5529",
        "website": "https:\/\/www.ironman4x4.com\/",
        "email": null,
        "description": null,
        "image_url": "https:\/\/www.ironman4x4.com\/wp-content\/uploads\/2020\/09\/Ironman-Logo-200px.png",
        "filters": [],
        "custom_fields": []
    },
    {
        "id": 18327609,
        "name": "Ironman 4x4 Perth",
        "latitude": "-32.06704001",
        "longitude": "115.91213001",
        "address_line_1": "Corner of Baile Road &, Craft St",
        "address_line_2": null,
        "city": "Canning Vale",
        "state": "WA",
        "postal_code": "6155",
        "country": "Australia",
        "full_address": null,
        "phone": "08 6253 8778 ",
        "website": "https:\/\/www.ironman4x4.com\/",
        "email": null,
        "description": "",
        "image_url": "https:\/\/www.ironman4x4.com\/wp-content\/uploads\/2020\/09\/Ironman-Logo-200px.png",
        "filters": [],
        "custom_fields": []
    },
    {
        "id": 18677217,
        "name": "Ironman 4x4 Townsville",
        "latitude": "-19.27181964",
        "longitude": "146.75309933",
        "address_line_1": " 437 Bayswater Rd",
        "address_line_2": null,
        "city": "Garbutt",
        "state": "QLD",
        "postal_code": "4814",
        "country": "Australia",
        "full_address": null,
        "phone": "07 4700 6487",
        "website": "https:\/\/www.ironman4x4.com\/",
        "email": null,
        "description": null,
        "image_url": "https:\/\/www.ironman4x4.com\/wp-content\/uploads\/2020\/09\/Ironman-Logo-200px.png",
        "filters": [],
        "custom_fields": []
    },
    {
        "id": 18330110,
        "name": "JB Auto Electrics",
        "latitude": "-30.75065000",
        "longitude": "121.46419999",
        "address_line_1": "128 Dugan S",
        "address_line_2": "",
        "city": "Kalgoorlie",
        "state": "WA",
        "postal_code": "6430",
        "country": "Australia",
        "full_address": null,
        "phone": "0410 424 055",
        "website": "https:\/\/www.jbautoelectrics.com.au\/",
        "email": "jack@jbautoelectrics.com.au",
        "description": null,
        "image_url": "https:\/\/static.wixstatic.com\/media\/587b9a_b7a0c1b17423416eb708e0a68945ff07~mv2.png\/v1\/fill\/w_152,h_70,al_c,q_85,usm_0.66_1.00_0.01,enc_auto\/JB%20Auto%20Electrics%20logo.png",
        "filters": [],
        "custom_fields": []
    },
    {
        "id": 18326366,
        "name": "JTS 12 Volt and 4wd Accessories",
        "latitude": "-26.82557621",
        "longitude": "152.94851207",
        "address_line_1": "3175 Old Gympie Rd",
        "address_line_2": null,
        "city": "Beerwah",
        "state": "QLD",
        "postal_code": "4550",
        "country": "Australia",
        "full_address": null,
        "phone": "1300 377 128",
        "website": "https:\/\/jts12volt.com.au\/",
        "email": null,
        "description": null,
        "image_url": "https:\/\/jts12volt.com.au\/wp-content\/uploads\/2020\/10\/JTS-letterhead-logo-22-10-20.png",
        "filters": [],
        "custom_fields": []
    },
    {
        "id": 18327611,
        "name": "Kropps Mechanical & Caravan Services",
        "latitude": "-27.60845852",
        "longitude": "152.80688179",
        "address_line_1": "5\/14 Coal st",
        "address_line_2": null,
        "city": "Bundamba",
        "state": "QLD",
        "postal_code": "4304",
        "country": "Australia",
        "full_address": null,
        "phone": "07 3816 3221 ",
        "website": "https:\/\/www.kroppsmechanical.com.au\/",
        "email": "info@kroppsmechanical.com.au",
        "description": null,
        "image_url": "https:\/\/www.kroppsmechanical.com.au\/wp-content\/uploads\/logo.svg",
        "filters": [],
        "custom_fields": []
    },
    {
        "id": 18330141,
        "name": "L&S Offroad",
        "latitude": "-12.42984185",
        "longitude": "130.91936706",
        "address_line_1": "16 Jessop Cres",
        "address_line_2": null,
        "city": "Berrimah ",
        "state": "NT",
        "postal_code": "0828",
        "country": "Australia",
        "full_address": null,
        "phone": "08 8947 4771",
        "website": "https:\/\/lsoffroad.com.au\/",
        "email": " sales@lsoffroad.com.au",
        "description": null,
        "image_url": "https:\/\/lsoffroad.com.au\/images\/logos\/ls-arb-combo-logo1.png",
        "filters": [],
        "custom_fields": []
    },
    {
        "id": 18327613,
        "name": "Lifestyle 4x4 Gympie",
        "latitude": "-26.22265429",
        "longitude": "152.69096225",
        "address_line_1": "u1\/5 Hall Rd",
        "address_line_2": null,
        "city": "Glanmire",
        "state": "QLD",
        "postal_code": "4570",
        "country": "Australia",
        "full_address": null,
        "phone": "07 5209 6888",
        "website": "https:\/\/www.lifestyle4x4.com.au\/",
        "email": "gympie@lifestyle4x4.com.au",
        "description": null,
        "image_url": "https:\/\/www.lifestyle4x4.com.au\/assets\/website_logo.png?1658456409",
        "filters": [],
        "custom_fields": []
    },
    {
        "id": 18326373,
        "name": "Linemac Motors",
        "latitude": "-24.40675080",
        "longitude": "150.50442923",
        "address_line_1": "54 Dawson Hwy",
        "address_line_2": null,
        "city": "Biloela",
        "state": "QLD",
        "postal_code": "4715",
        "country": "Australia",
        "full_address": null,
        "phone": "07 4995 5400",
        "website": "https:\/\/www.linemac.com.au\/",
        "email": "admin@linemac.com.au",
        "description": null,
        "image_url": "https:\/\/s3-ap-southeast-2.amazonaws.com\/imotor-cms\/images_cms\/216227_linemac_logo_carsearch_nm.png",
        "filters": [],
        "custom_fields": []
    },
    {
        "id": 18333009,
        "name": "Lockyer Valley Ford",
        "latitude": "-27.55612452",
        "longitude": "152.28076356",
        "address_line_1": "67 Crescent St",
        "address_line_2": null,
        "city": "Gatton",
        "state": "QLD",
        "postal_code": "4343",
        "country": "Australia",
        "full_address": null,
        "phone": "07 5462 3200",
        "website": "https:\/\/www.lockyervalleyford.com.au\/",
        "email": null,
        "description": null,
        "image_url": null,
        "filters": [],
        "custom_fields": []
    },
    {
        "id": 18326371,
        "name": "Lovells Adelaide",
        "latitude": "-34.98748417",
        "longitude": "138.57214239",
        "address_line_1": "15 Deloraine Rd",
        "address_line_2": null,
        "city": "South Australia",
        "state": "QLD",
        "postal_code": "5039",
        "country": "Australia",
        "full_address": null,
        "phone": "08 8374 5500",
        "website": "https:\/\/lovellsadelaide.com.au\/",
        "email": "sales@lovellsadelaide.com.au",
        "description": null,
        "image_url": "https:\/\/lovellsadelaide.com.au\/uploads\/logo-lovells-tall.svg",
        "filters": [],
        "custom_fields": []
    },
    {
        "id": 21492815,
        "name": "Mainwaring Auto Electrics",
        "latitude": "-41.19274401",
        "longitude": "146.36412261",
        "address_line_1": " 5 Devonport Rd",
        "address_line_2": null,
        "city": "Miandetta ",
        "state": "TAS",
        "postal_code": "7310",
        "country": "Australia",
        "full_address": null,
        "phone": "03 6424 3352",
        "website": "http:\/\/www.mainwarings.com.au\/",
        "email": "admin@mainwarings.com.au",
        "description": null,
        "image_url": "http:\/\/www.mainwarings.com.au\/images\/logo.png",
        "filters": [],
        "custom_fields": []
    },
    {
        "id": 18330139,
        "name": "Make Tracks WA",
        "latitude": "-31.89519900",
        "longitude": "116.02108201",
        "address_line_1": "44 Elgee Rd",
        "address_line_2": null,
        "city": "Bellevue",
        "state": "WA",
        "postal_code": "6056",
        "country": "Australia",
        "full_address": null,
        "phone": "08 9374 0777",
        "website": "https:\/\/maketracksarb.com.au\/",
        "email": "sales@maketracksarb.com.au",
        "description": null,
        "image_url": "https:\/\/maketracksarb.com.au\/wp-content\/uploads\/2021\/10\/make_tracks_wa-logo-white@2x.png",
        "filters": [],
        "custom_fields": []
    },
    {
        "id": 18333005,
        "name": "McCracken Ford",
        "latitude": "-34.14639908",
        "longitude": "138.42090595",
        "address_line_1": "1 Edith Terrace",
        "address_line_2": null,
        "city": " Balaklava",
        "state": "SA",
        "postal_code": "5461",
        "country": "Australia",
        "full_address": null,
        "phone": "08 8862 1477",
        "website": "http:\/\/www.mccrackenford.com.au\/",
        "email": null,
        "description": null,
        "image_url": "http:\/\/www.mccrackenford.com.au\/",
        "filters": [],
        "custom_fields": []
    },
    {
        "id": 18333004,
        "name": "McInerney Ford",
        "latitude": "-31.89558122",
        "longitude": "115.89422601",
        "address_line_1": "239 Walter Rd W",
        "address_line_2": null,
        "city": "Morley",
        "state": "WA",
        "postal_code": "6062",
        "country": "Australia",
        "full_address": null,
        "phone": "08 9275 1222",
        "website": "https:\/\/www.mford.com.au\/",
        "email": "reception@mford.com.au",
        "description": null,
        "image_url": "https:\/\/web-assets.cdn.dealersolutions.com.au\/modular.multisite.dealer.solutions\/wp-content\/uploads\/2021\/11\/17093419\/ford-logo-150x70-001.png",
        "filters": [],
        "custom_fields": []
    },
    {
        "id": 21707274,
        "name": "Membreys Auto Electrics",
        "latitude": "-35.63881144",
        "longitude": "144.12583956",
        "address_line_1": "108 Grigg Rd",
        "address_line_2": null,
        "city": "Koondrook",
        "state": "VIC",
        "postal_code": "3580",
        "country": "Australia",
        "full_address": null,
        "phone": "03 5453 1688",
        "website": "https:\/\/membreysautoelectrical.com.au\/",
        "email": "membreysauto@hotmail.com",
        "description": null,
        "image_url": "https:\/\/membreysautoelectrical.com.au\/wp-content\/uploads\/2023\/02\/Membrey-3.png",
        "filters": [],
        "custom_fields": []
    },
    {
        "id": 18333006,
        "name": "Meredith Metalworks",
        "latitude": "-27.54114505",
        "longitude": "152.95458777",
        "address_line_1": "4\/528 Seventeen Mile Rocks Rd",
        "address_line_2": null,
        "city": " Jindalee",
        "state": "QLD",
        "postal_code": "4073",
        "country": "Australia",
        "full_address": null,
        "phone": "0411 794 240",
        "website": "https:\/\/meredithmetalworks.com\/",
        "email": null,
        "description": null,
        "image_url": "https:\/\/cdn.shopify.com\/s\/files\/1\/0266\/7501\/9829\/files\/OG_Logo_700x.jpg?v=1613526875",
        "filters": [],
        "custom_fields": []
    },
    {
        "id": 18333003,
        "name": "MFI Service Bodies",
        "latitude": "-38.09453711",
        "longitude": "145.47563115",
        "address_line_1": "70 National Ave",
        "address_line_2": null,
        "city": "Pakenham",
        "state": "VIC",
        "postal_code": "3810",
        "country": "Australia",
        "full_address": null,
        "phone": "03 9989 3326",
        "website": "https:\/\/www.mfiservicebodies.com.au\/",
        "email": null,
        "description": null,
        "image_url": "https:\/\/www.mfiservicebodies.com.au\/wp-content\/uploads\/2020\/02\/logo.png",
        "filters": [],
        "custom_fields": []
    },
    {
        "id": 18330123,
        "name": "Michaels Electronics",
        "latitude": "-27.55774503",
        "longitude": "151.95426798",
        "address_line_1": "330 Ruthven St",
        "address_line_2": null,
        "city": "Toowoomba City",
        "state": "QLD",
        "postal_code": "4350",
        "country": "Australia",
        "full_address": null,
        "phone": "07 4632 9990",
        "website": "https:\/\/www.michaelselectronics.com.au\/",
        "email": null,
        "description": null,
        "image_url": "https:\/\/cdn.shopify.com\/s\/files\/1\/0505\/7894\/8287\/files\/michaels-electronics-logo-1490151720_280x@2x.jpg?v=1614308185",
        "filters": [],
        "custom_fields": []
    },
    {
        "id": 21549786,
        "name": "Mick Tighe 4x4 & Outdoor",
        "latitude": "-27.56403444",
        "longitude": "151.94727152",
        "address_line_1": "190 Herries St",
        "address_line_2": null,
        "city": "Toowoomba",
        "state": "QLD",
        "postal_code": "4350",
        "country": "Australia",
        "full_address": null,
        "phone": "07 4632 9782",
        "website": "https:\/\/www.micktighe4x4.com.au\/",
        "email": "SALES@MICKTIGHE4X4.COM.AU",
        "description": null,
        "image_url": "https:\/\/cdn.shopify.com\/s\/files\/1\/0656\/5036\/0566\/files\/Mick-Tighe-4x4-and-Outdoor-Toowoomba.png?height=628&pad_color=fff&v=1669258200&width=1200",
        "filters": [],
        "custom_fields": []
    },
    {
        "id": 21128026,
        "name": "Mildura 4WD Accessories and Markraft Engineering",
        "latitude": "-34.19274350",
        "longitude": "142.17501530",
        "address_line_1": "55 Seventh St E, ",
        "address_line_2": null,
        "city": "Mildura",
        "state": "VIC",
        "postal_code": "3500",
        "country": "Australia",
        "full_address": null,
        "phone": "03 5021 3213",
        "website": "http:\/\/www.mildura4wdaccessories.com.au\/",
        "email": "james@mildura4wd.com.au",
        "description": null,
        "image_url": "http:\/\/www.mildura4wdaccessories.com.au\/wp-content\/uploads\/2020\/07\/mildura4wd_newlogo_transparent.png",
        "filters": [],
        "custom_fields": []
    },
    {
        "id": 18327604,
        "name": "Morley 4WD",
        "latitude": "-31.90209999",
        "longitude": "115.90184005",
        "address_line_1": "152 Russell St",
        "address_line_2": null,
        "city": "Morley",
        "state": "WA",
        "postal_code": "6062",
        "country": "Australia",
        "full_address": null,
        "phone": "08 6365 6483",
        "website": "https:\/\/www.morley4wd.com.au\/",
        "email": null,
        "description": null,
        "image_url": "https:\/\/s3-ap-southeast-2.amazonaws.com\/essential-4wd-assets\/logo\/_AUTOxAUTO_crop_center-center_none\/9371\/CompanyMorley-4WD_2022-03-18-052209_cqgl.webp",
        "filters": [],
        "custom_fields": []
    },
    {
        "id": 18330108,
        "name": "MTS 4x4 & DYNO",
        "latitude": "-35.92232604",
        "longitude": "145.63663368",
        "address_line_1": "3725 Murray Valley Hwy",
        "address_line_2": null,
        "city": "Cobram",
        "state": "VIC",
        "postal_code": "3644",
        "country": "Australia",
        "full_address": null,
        "phone": "03 5871 1242",
        "website": "https:\/\/www.mts4x4.com.au\/",
        "email": "matt@mts4x4.com.au",
        "description": null,
        "image_url": "https:\/\/www.mts4x4.com.au\/wp-content\/uploads\/2022\/06\/mtslogo.png",
        "filters": [],
        "custom_fields": []
    },
    {
        "id": 18326368,
        "name": "North Eastern 4x4 & Outdoor",
        "latitude": "-37.75901850",
        "longitude": "145.07119008",
        "address_line_1": "11 Yarra St",
        "address_line_2": null,
        "city": "Heidelberg",
        "state": "VIC",
        "postal_code": "3084",
        "country": "Australia",
        "full_address": null,
        "phone": "03 9287 1559",
        "website": "https:\/\/www.northeastern4x4.com.au\/",
        "email": "sales@northeastern4x4.com.au",
        "description": null,
        "image_url": "https:\/\/cdn.shopify.com\/s\/files\/1\/0023\/2901\/8412\/files\/north_eastern_4x4_logo-white_360x.png?v=1613520309",
        "filters": [],
        "custom_fields": []
    },
    {
        "id": 18330122,
        "name": "Northwest Offroad",
        "latitude": "-41.21854912",
        "longitude": "146.34084112",
        "address_line_1": "24 Kelcey Tier Rd",
        "address_line_2": null,
        "city": "Spreyton",
        "state": "TAS",
        "postal_code": "7310",
        "country": "Australia",
        "full_address": null,
        "phone": "03 6427 3266",
        "website": "https:\/\/www.nwoffroad.com.au\/",
        "email": null,
        "description": null,
        "image_url": "http:\/\/www.nwoffroad.com.au\/skin\/frontend\/default\/theme082k\/images\/logo.png",
        "filters": [],
        "custom_fields": []
    },
    {
        "id": 18330120,
        "name": "Opposite Lock Arundel",
        "latitude": "-27.94514126",
        "longitude": "153.34085378",
        "address_line_1": "136 Kingston Dr",
        "address_line_2": null,
        "city": "Arundel",
        "state": "QLD",
        "postal_code": "4214",
        "country": "Australia",
        "full_address": null,
        "phone": "07 5583 9370 ",
        "website": "https:\/\/oppositelock.com.au\/ol\/store\/Arundel",
        "email": "info@arundel.oppositelock.com.au",
        "description": null,
        "image_url": "https:\/\/oppositelock.com.au\/ol\/medias\/opposite-lock-logo-734x120.png?context=bWFzdGVyfGltYWdlc3wxNzQ4OXxpbWFnZS9wbmd8aDljL2hhYS8xMDAxMzMwNDI1ODU5MC9vcHBvc2l0ZS1sb2NrLWxvZ28tNzM0eDEyMC5wbmd8OTFlNjViZDJlNDM3YTNmMjNiNzFlN2UxYmM4NWVjMWYxMzA0ZjhjNDQ4ZWQzNGIzYj",
        "filters": [],
        "custom_fields": []
    },
    {
        "id": 18330132,
        "name": "Outback Auto NT",
        "latitude": "-12.44085454",
        "longitude": "130.92078226",
        "address_line_1": "11 Mel Rd",
        "address_line_2": null,
        "city": "Berrimah",
        "state": "NT",
        "postal_code": "0828",
        "country": "Australia",
        "full_address": null,
        "phone": "08 8988 3317",
        "website": "https:\/\/www.outbackautont.com.au\/",
        "email": null,
        "description": null,
        "image_url": "https:\/\/lirp.cdn-website.com\/72986938\/dms3rep\/multi\/opt\/Company-logo-333w.png",
        "filters": [],
        "custom_fields": []
    },
    {
        "id": 18330140,
        "name": "Oztrack Custom",
        "latitude": "-34.28735817",
        "longitude": "146.05732375",
        "address_line_1": "180B Wakaden St",
        "address_line_2": null,
        "city": "Griffith ",
        "state": "NSW",
        "postal_code": "2680",
        "country": "Australia",
        "full_address": null,
        "phone": "02 6909 1694",
        "website": "https:\/\/www.oztrackcustom.com.au\/",
        "email": "sales@oztrackcustom.com.au",
        "description": null,
        "image_url": "https:\/\/ecjgsxhegdp.exactdn.com\/wp-content\/uploads\/2021\/09\/ozTrack_logo_01.png?strip=all&lossy=1&ssl=1&fit=400,119",
        "filters": [],
        "custom_fields": []
    },
    {
        "id": 18326375,
        "name": "Peel 4WD Centre",
        "latitude": "-32.53565000",
        "longitude": "115.73638002",
        "address_line_1": "292 Pinjarra Rd",
        "address_line_2": null,
        "city": "Mandurah",
        "state": "WA",
        "postal_code": "6210",
        "country": "Australia",
        "full_address": null,
        "phone": "08 9581 6184",
        "website": "https:\/\/www.peel4wdcentre.com.au\/",
        "email": null,
        "description": null,
        "image_url": "https:\/\/www.peel4wdcentre.com.au\/img\/peel-4wd-centre-logo.jpg",
        "filters": [],
        "custom_fields": []
    },
    {
        "id": 18330128,
        "name": "Pinnacle 4x4",
        "latitude": "-27.60796257",
        "longitude": "153.11488111",
        "address_line_1": "5 Darnick St",
        "address_line_2": null,
        "city": "Underwood",
        "state": "QLD",
        "postal_code": "4119",
        "country": "Australia",
        "full_address": null,
        "phone": "07 3808 4200",
        "website": "https:\/\/www.pinnacle4x4.com.au\/",
        "email": null,
        "description": null,
        "image_url": "https:\/\/static.wixstatic.com\/media\/3bea10_74bce1e3912548c7a9ce731bd57876a2~mv2.jpg\/v1\/crop\/x_88,y_364,w_4473,h_1289\/fill\/w_1058,h_305,al_c,q_80,usm_0.66_1.00_0.01,enc_auto\/youtube2.jpg",
        "filters": [],
        "custom_fields": []
    },
    {
        "id": 18330112,
        "name": "Piranha Off Road Products",
        "latitude": "-37.84717399",
        "longitude": "145.28583477",
        "address_line_1": "4\/383 Dorset Rd",
        "address_line_2": null,
        "city": "Boronia",
        "state": "VIC",
        "postal_code": "3155",
        "country": "Australia",
        "full_address": null,
        "phone": "03 9762 1200",
        "website": "https:\/\/www.piranhaoffroad.com.au\/",
        "email": null,
        "description": null,
        "image_url": "https:\/\/store-zby41x9gmk.mybigcommerce.com\/product_images\/uploaded_images\/dark-bg-logo.png",
        "filters": [],
        "custom_fields": []
    },
    {
        "id": 18327597,
        "name": "Powertune 4x4 & Car Service Centre",
        "latitude": "-27.65819791",
        "longitude": "152.74482495",
        "address_line_1": "450 Warwick Rd",
        "address_line_2": null,
        "city": "Yamanto",
        "state": "QLD ",
        "postal_code": "4305",
        "country": "Australia",
        "full_address": null,
        "phone": "07 3281 1050",
        "website": "https:\/\/www.powertune4x4.com.au\/",
        "email": null,
        "description": null,
        "image_url": "https:\/\/www.powertune4x4.com.au\/wp-content\/uploads\/2019\/03\/LogoPT.png",
        "filters": [],
        "custom_fields": []
    },
    {
        "id": 21493080,
        "name": "PPD Performance",
        "latitude": "-32.04434152",
        "longitude": "115.82307203",
        "address_line_1": "Unit 3\/102-104 Norma Rd",
        "address_line_2": null,
        "city": "Booragoon",
        "state": "WA",
        "postal_code": "6154",
        "country": "Australia",
        "full_address": null,
        "phone": "1300 773 494",
        "website": "https:\/\/ppdperformance.com.au\/",
        "email": "sales@ppdperformance.com.au",
        "description": null,
        "image_url": "https:\/\/cdn.shopify.com\/s\/files\/1\/2136\/3225\/files\/logo-ppd-2021_200x.png?v=1636963945",
        "filters": [],
        "custom_fields": []
    },
    {
        "id": 18326369,
        "name": "Pro Fit Australia - Towbars, 4X4 and Auto Electrical",
        "latitude": "-27.57552787",
        "longitude": "152.26634627",
        "address_line_1": "20 Market Dr",
        "address_line_2": null,
        "city": "Gatton",
        "state": "QLD",
        "postal_code": "4343",
        "country": "Australia",
        "full_address": null,
        "phone": "07 5462 2333",
        "website": "https:\/\/www.profitaust.com.au\/",
        "email": "sales@profitaust.com.au",
        "description": null,
        "image_url": "https:\/\/www.profitaust.com.au\/uploads\/mmmam6oD\/476x0_392x0\/Profit4002logo....jpg",
        "filters": [],
        "custom_fields": []
    },
    {
        "id": 18330121,
        "name": "PX Wholesales Pty Ltd",
        "latitude": "-38.02961644",
        "longitude": "145.21256009",
        "address_line_1": "15 Frankston - Dandenong Rd",
        "address_line_2": null,
        "city": "Dandenong",
        "state": "VIC",
        "postal_code": "3175",
        "country": "Australia",
        "full_address": null,
        "phone": "03 9769 1967",
        "website": "https:\/\/www.pxwholesales.com.au\/",
        "email": "sales@pxwholesales.com.au",
        "description": null,
        "image_url": "https:\/\/www.pxwholesales.com.au\/assets\/website_logo.png",
        "filters": [],
        "custom_fields": []
    },
    {
        "id": 18333002,
        "name": "REDFLEET Safety",
        "latitude": "-33.83617952",
        "longitude": "151.03393795",
        "address_line_1": "130 Beaconsfield St",
        "address_line_2": null,
        "city": "Silverwater",
        "state": "NSW",
        "postal_code": "2128",
        "country": "Australia",
        "full_address": null,
        "phone": "1800 733 358",
        "website": "https:\/\/www.redfleetsafety.com.au\/",
        "email": "sales@redlinefleet.com.au",
        "description": null,
        "image_url": "https:\/\/www.redfleetsafety.com.au\/",
        "filters": [],
        "custom_fields": []
    },
    {
        "id": 18332996,
        "name": "Sentry Automotive Solutions",
        "latitude": "-33.84148887",
        "longitude": "150.95183528",
        "address_line_1": "59-67 Percival Rd",
        "address_line_2": "",
        "city": "Smithfield",
        "state": "NSW",
        "postal_code": "2164",
        "country": "Australia",
        "full_address": null,
        "phone": "02 8577 4922",
        "website": "https:\/\/www.sentryas.com.au\/",
        "email": null,
        "description": null,
        "image_url": "https:\/\/s3-ap-southeast-2.amazonaws.com\/imotor-cms\/images_cms\/215228_sentryas-logo.png",
        "filters": [],
        "custom_fields": []
    },
    {
        "id": 18330136,
        "name": "Seven Slot Off Road",
        "latitude": "-27.76105505",
        "longitude": "153.24968265",
        "address_line_1": "3\/35 Notar Dr",
        "address_line_2": null,
        "city": " Ormeau",
        "state": "QLD",
        "postal_code": "4208",
        "country": "Australia",
        "full_address": null,
        "phone": "07 3801 8185",
        "website": "https:\/\/www.sevenslot.com.au\/",
        "email": "info@sevenslot.com.au",
        "description": null,
        "image_url": "https:\/\/sevenslot.com.au\/wp-content\/uploads\/2019\/04\/seven-logo-new.png",
        "filters": [],
        "custom_fields": []
    },
    {
        "id": 18330106,
        "name": "Sharp 4x4",
        "latitude": "-32.13102469",
        "longitude": "115.85656109",
        "address_line_1": "11b\/816 Beeliar Dr",
        "address_line_2": null,
        "city": "Cockburn Central",
        "state": "WA",
        "postal_code": "6164",
        "country": "Australia",
        "full_address": null,
        "phone": "08 6392 7049",
        "website": "https:\/\/www.sharp4x4.com.au\/",
        "email": "info@sharp4x4.com.au",
        "description": null,
        "image_url": "https:\/\/www.sharp4x4.com.au\/wp-content\/uploads\/sharp4x4-logo.jpg",
        "filters": [],
        "custom_fields": []
    },
    {
        "id": 18330115,
        "name": "Smithies Outback Gear",
        "latitude": "-38.09751168",
        "longitude": "145.48695485",
        "address_line_1": " 2\/4 Southeast Blvd",
        "address_line_2": null,
        "city": "Pakenham",
        "state": "VIC",
        "postal_code": "3810",
        "country": "Australia",
        "full_address": null,
        "phone": "03 5940 3377",
        "website": "https:\/\/www.smithiesoutback.com.au\/",
        "email": "sales@smithiesoutback.com.au",
        "description": null,
        "image_url": "https:\/\/www.smithiesoutback.com.au\/assets\/website_logo.png?1674128858",
        "filters": [],
        "custom_fields": []
    },
    {
        "id": 18333008,
        "name": "Southern Car Care",
        "latitude": "-33.33410997",
        "longitude": "115.64958005",
        "address_line_1": "8 Zaknic Pl",
        "address_line_2": null,
        "city": "Bunbury",
        "state": "WA",
        "postal_code": "6230",
        "country": "Australia",
        "full_address": null,
        "phone": "08 9791 4440",
        "website": "https:\/\/www.southerncarcare.com.au\/",
        "email": "sales@southerncarcare.com.au",
        "description": null,
        "image_url": "https:\/\/images.squarespace-cdn.com\/content\/v1\/5ff3e2c7392ba84a98bcbccf\/1609905163017-CRKS30Q1ZZJ269K94KZP\/SCC_Logo_Tagline.png?format=1500w",
        "filters": [],
        "custom_fields": []
    },
    {
        "id": 18327605,
        "name": "Sports Range 4X4",
        "latitude": "-31.79056821",
        "longitude": "115.81647598",
        "address_line_1": "6\/15 Prindiville Drive",
        "address_line_2": null,
        "city": "Wangara",
        "state": "WA",
        "postal_code": "6065",
        "country": "Australia",
        "full_address": null,
        "phone": "08 9409 1400",
        "website": "https:\/\/sportsrange.com.au\/",
        "email": "info@sportsrange.com.au",
        "description": null,
        "image_url": "https:\/\/sportsrange.com.au\/wp-content\/uploads\/elementor\/thumbs\/cropped-Sports-Range-4x4-Logo-ou8b0268ld6zjyf3f3q5egy1v0lsiasnqre2gonct4.png",
        "filters": [],
        "custom_fields": []
    },
    {
        "id": 18332997,
        "name": "Tamworth 4x4",
        "latitude": "-31.09228296",
        "longitude": "150.91057553",
        "address_line_1": " 61 Barnes St",
        "address_line_2": null,
        "city": "Taminda",
        "state": "NSW",
        "postal_code": "2340",
        "country": "Australia",
        "full_address": null,
        "phone": "02 6762 2256",
        "website": "https:\/\/www.tamworth4x4.com.au\/",
        "email": null,
        "description": null,
        "image_url": "https:\/\/irp-cdn.multiscreensite.com\/a1524d3e\/DESKTOP\/png\/124.png",
        "filters": [],
        "custom_fields": []
    },
    {
        "id": 21193367,
        "name": "TCT Solutions",
        "latitude": "-23.38456962",
        "longitude": "150.51208719",
        "address_line_1": "45 Derby St",
        "address_line_2": null,
        "city": "Rockhampton",
        "state": "QLD",
        "postal_code": "4700",
        "country": "Australia",
        "full_address": null,
        "phone": "07 4922 6809",
        "website": "https:\/\/www.tctsolutions.com.au\/",
        "email": "admin@tctsolutions.com.au",
        "description": null,
        "image_url": "https:\/\/static.wixstatic.com\/media\/66cb5e_db864da0a7eb498c91018604f187f6ff~mv2.png\/v1\/fill\/w_130,h_108,al_c,q_85,usm_0.66_1.00_0.01,enc_auto\/TCT%20logo.png",
        "filters": [],
        "custom_fields": []
    },
    {
        "id": 18330125,
        "name": "TJM & 4WD Vehicle Accessories",
        "latitude": "-33.27575055",
        "longitude": "149.10932230",
        "address_line_1": "247 McLachlan St",
        "address_line_2": null,
        "city": "Orange",
        "state": "NSW",
        "postal_code": "2800",
        "country": "Australia",
        "full_address": null,
        "phone": "02 6361 7999",
        "website": "https:\/\/www.tjm.com.au\/",
        "email": null,
        "description": null,
        "image_url": "https:\/\/dqh5gwkalhnqo.cloudfront.net\/logo\/stores\/7\/tjm-logo-01.png",
        "filters": [],
        "custom_fields": []
    },
    {
        "id": 21554700,
        "name": "TJM 4x4 Accessories",
        "latitude": "-38.09241704",
        "longitude": "145.47763811",
        "address_line_1": "47 Commercial Dr",
        "address_line_2": null,
        "city": "Pakenham",
        "state": "VIC",
        "postal_code": "3810",
        "country": "Australia",
        "full_address": null,
        "phone": "03 5941 6588",
        "website": "https:\/\/www.tjmpakenham.com.au\/",
        "email": null,
        "description": null,
        "image_url": "https:\/\/www.tjmpakenham.com.au\/wp-content\/uploads\/2019\/11\/tjm-logo.gif",
        "filters": [],
        "custom_fields": []
    },
    {
        "id": 18326364,
        "name": "TJM Ballarat",
        "latitude": "-37.54132337",
        "longitude": "143.84221741",
        "address_line_1": "908 Howitt St",
        "address_line_2": null,
        "city": "Wendouree",
        "state": "VIC",
        "postal_code": "3355",
        "country": "Australia",
        "full_address": null,
        "phone": "03 5331 2116",
        "website": "https:\/\/www.tjm.com.au\/",
        "email": "",
        "description": null,
        "image_url": "https:\/\/dqh5gwkalhnqo.cloudfront.net\/logo\/stores\/7\/tjm-logo-01.png",
        "filters": [],
        "custom_fields": []
    },
    {
        "id": 18327602,
        "name": "TJM Toowoomba",
        "latitude": "-27.55118485",
        "longitude": "151.91448805",
        "address_line_1": "305 Taylor st",
        "address_line_2": null,
        "city": "Wilsonton",
        "state": "QLD",
        "postal_code": "4350",
        "country": "Australia",
        "full_address": null,
        "phone": "07 4634 6096",
        "website": "http:\/\/www.tjmtoowoomba.com.au\/",
        "email": "sales@tjmtoowoomba.com.au",
        "description": null,
        "image_url": "http:\/\/www.tjmtoowoomba.com.au\/uploads\/5\/4\/9\/2\/54923881\/published\/tjm-toowoomba-landscape-on-light.png?1568790651",
        "filters": [],
        "custom_fields": []
    },
    {
        "id": 18330109,
        "name": "TJM WAGGA WAGGA",
        "latitude": "-35.12554220",
        "longitude": "147.34011880",
        "address_line_1": "3 Rabaul Place",
        "address_line_2": null,
        "city": "Ashmont",
        "state": "NSW",
        "postal_code": "2650",
        "country": "Australia",
        "full_address": null,
        "phone": null,
        "website": "https:\/\/www.tjm.com.au\/stores\/tjm-wagga-wagga",
        "email": null,
        "description": null,
        "image_url": "https:\/\/dqh5gwkalhnqo.cloudfront.net\/logo\/stores\/7\/tjm-logo-01.png",
        "filters": [],
        "custom_fields": []
    },
    {
        "id": 18327608,
        "name": "Tracks Adventure Gear",
        "latitude": "-35.35456949",
        "longitude": "149.08827618",
        "address_line_1": "72 Dundas Ct",
        "address_line_2": null,
        "city": "Phillip",
        "state": "ACT",
        "postal_code": "2606",
        "country": "Australia",
        "full_address": null,
        "phone": "02 6162 1929",
        "website": "https:\/\/www.tracksadventuregear.com.au\/",
        "email": null,
        "description": null,
        "image_url": "https:\/\/images.squarespace-cdn.com\/content\/v1\/61834733d2b78c05b594b802\/f2129dd7-74a6-463c-bcbe-8dfe8de0545e\/Logo_Tracks_Horizontal_AdventureGear_Primary.png?format=1500w",
        "filters": [],
        "custom_fields": []
    },
    {
        "id": 18660202,
        "name": "Trax Industries",
        "latitude": "-37.86918529",
        "longitude": "144.73000622",
        "address_line_1": "419-425 Old Geelong Rd",
        "address_line_2": null,
        "city": "Hoppers Crossing",
        "state": "VIC",
        "postal_code": "3029",
        "country": "Australia",
        "full_address": null,
        "phone": "03 9931 1160",
        "website": "https:\/\/www.traxindustries.com.au\/",
        "email": "info@traxindustries.com.au",
        "description": null,
        "image_url": "https:\/\/www.traxindustries.com.au\/assets\/website_logo.png",
        "filters": [],
        "custom_fields": []
    },
    {
        "id": 18330130,
        "name": "Truracks Western Towbars and Bullbars",
        "latitude": "-33.76642729",
        "longitude": "150.68156852",
        "address_line_1": "U2\/65 Regentville Rd",
        "address_line_2": null,
        "city": "Penrith",
        "state": "NSW",
        "postal_code": "2750",
        "country": "Australia",
        "full_address": null,
        "phone": "02 4731 4680",
        "website": "https:\/\/truracks.com.au\/",
        "email": null,
        "description": null,
        "image_url": "https:\/\/truracks.com.au\/wp-content\/uploads\/2020\/08\/truracks-Ironman-4x4-logo-R2.png",
        "filters": [],
        "custom_fields": []
    },
    {
        "id": 18327606,
        "name": "Tyrant 4x4 Accessories",
        "latitude": "-33.79423861",
        "longitude": "150.99747038",
        "address_line_1": "3b\/6 Boundary Rd",
        "address_line_2": null,
        "city": "Northmead",
        "state": "QLD",
        "postal_code": "2152",
        "country": "Australia",
        "full_address": null,
        "phone": "1800 860 680",
        "website": "https:\/\/tyrant4x4.com.au\/",
        "email": "sales@tyrant4x4.com.au",
        "description": null,
        "image_url": "https:\/\/scontent.fbne5-1.fna.fbcdn.net\/v\/t39.30808-6\/287586171_5168896616528915_4899946899512653112_n.jpg?_nc_cat=100&ccb=1-7&_nc_sid=09cbfe&_nc_ohc=mxQFBQeO86AAX-R10az&_nc_ht=scontent.fbne5-1.fna&oh=00_AfDcdg7lNAF5YBZvprQ0S5uqandY-FKLQqqbTqKd53r4ew&oe=64",
        "filters": [],
        "custom_fields": []
    },
    {
        "id": 18326273,
        "name": "UV 4X4",
        "latitude": "-27.41870699",
        "longitude": "152.99557159",
        "address_line_1": "21 Magura st",
        "address_line_2": null,
        "city": "Enoggera",
        "state": "QLD",
        "postal_code": "4051",
        "country": "Australia",
        "full_address": null,
        "phone": "07 3855 4444",
        "website": "http:\/\/uv4x4.com.au",
        "email": "manager.enoggera@uv4x4.com.au",
        "description": null,
        "image_url": "https:\/\/www.uv4x4.com.au\/images\/logo-uv4x4.svg",
        "filters": [],
        "custom_fields": []
    },
    {
        "id": 18326272,
        "name": "UV 4X4",
        "latitude": "-27.31782751",
        "longitude": "152.98137533",
        "address_line_1": "51 Kremzow Rd",
        "address_line_2": null,
        "city": "Brendale",
        "state": "QLD",
        "postal_code": "4500",
        "country": "Australia",
        "full_address": null,
        "phone": "07 3889 8555",
        "website": "http:\/\/uv4x4.com.au",
        "email": "manager.brendale@uv4x4.com.au",
        "description": null,
        "image_url": "https:\/\/www.uv4x4.com.au\/images\/logo-uv4x4.svg",
        "filters": [],
        "custom_fields": []
    },
    {
        "id": 15837493,
        "name": "UV 4x4 ",
        "latitude": "-27.60919022",
        "longitude": "152.81035727",
        "address_line_1": "25 Brisbane Rd, Bundamba, QLD 4304",
        "address_line_2": null,
        "city": "BUNDAMBA",
        "state": "QLD",
        "postal_code": "4304",
        "country": "Australia",
        "full_address": null,
        "phone": "3816 3344",
        "website": "https:\/\/www.uv4x4.com.au\/",
        "email": "manager.ipswich@uv4x4.com.au",
        "description": null,
        "image_url": "https:\/\/www.uv4x4.com.au\/images\/logo-uv4x4.svg",
        "filters": [],
        "custom_fields": []
    },
    {
        "id": 18330116,
        "name": "Valley Motor Group",
        "latitude": "-38.20716998",
        "longitude": "146.50244003",
        "address_line_1": "Princes Hwy &, Coonoc Rd",
        "address_line_2": null,
        "city": "Traralgon",
        "state": "VIC",
        "postal_code": "3844",
        "country": "Australia",
        "full_address": null,
        "phone": "03 5173 3888",
        "website": "https:\/\/www.valleymotorgroup.com.au\/",
        "email": null,
        "description": null,
        "image_url": "https:\/\/s3-ap-southeast-2.amazonaws.com\/imotor-cms\/images_cms\/204433_valley-motor-group-logo.png",
        "filters": [],
        "custom_fields": []
    },
    {
        "id": 18326367,
        "name": "Van & Ute Extras Pty Ltd",
        "latitude": "-33.74488282",
        "longitude": "150.91192342",
        "address_line_1": "1\/12 Garling Rd",
        "address_line_2": null,
        "city": "Kings Park",
        "state": "NSW",
        "postal_code": "2148",
        "country": "Australia",
        "full_address": null,
        "phone": "02 9671 2330",
        "website": "http:\/\/www.vanextras.net.au\/Van_Extras\/Home.html",
        "email": "sales@vanextras.net.au",
        "description": null,
        "image_url": "http:\/\/www.vanextras.net.au\/Van_Extras\/Home_files\/Van%20Extras%20Chrome.jpg",
        "filters": [],
        "custom_fields": []
    },
    {
        "id": 18330119,
        "name": "Wangaratta Offroad & Mechanical",
        "latitude": "-36.35877891",
        "longitude": "146.31559902",
        "address_line_1": "1-3 Norton St",
        "address_line_2": null,
        "city": "Wangaratta",
        "state": "VIC",
        "postal_code": "3677",
        "country": "Australia",
        "full_address": null,
        "phone": "03 5721 2943",
        "website": "https:\/\/www.wangarattaoffroad.com.au\/",
        "email": "info@wangarattaoffroad.com.au",
        "description": null,
        "image_url": "https:\/\/lirp.cdn-website.com\/86f2fd5a\/dms3rep\/multi\/opt\/Wangaratta-OffRoad-Logo_v1-218w.png",
        "filters": [],
        "custom_fields": []
    },
    {
        "id": 18677218,
        "name": "Werribee Auto Electrics",
        "latitude": "-37.91083593",
        "longitude": "144.66154920",
        "address_line_1": "43 Russell St",
        "address_line_2": null,
        "city": "Werribee",
        "state": "VIC",
        "postal_code": "3030",
        "country": "Australia",
        "full_address": null,
        "phone": "03 8419 2841",
        "website": "https:\/\/www.werribeeautoelec.com.au\/",
        "email": "info@werribeeautoelec.com.au",
        "description": null,
        "image_url": "https:\/\/www.werribeeautoelec.com.au\/site\/themes\/decemvir\/images\/new-logo.png",
        "filters": [],
        "custom_fields": []
    },
    {
        "id": 18330127,
        "name": "Whitsunday 4x4 Automotive",
        "latitude": "-20.28789527",
        "longitude": "148.67668542",
        "address_line_1": "1\/11 Shute Harbour Rd",
        "address_line_2": null,
        "city": "Cannonvale",
        "state": "QLD",
        "postal_code": "4802",
        "country": "Australia",
        "full_address": null,
        "phone": "07 4946 1669",
        "website": "https:\/\/www.whitsunday4x4.com.au\/",
        "email": "info@whitauto.com.au",
        "description": null,
        "image_url": "https:\/\/lirp.cdn-website.com\/700e61d6\/dms3rep\/multi\/opt\/Whitauto_4x4_LOGO_v07_v2-600w.png",
        "filters": [],
        "custom_fields": []
    },
    {
        "id": 21089522,
        "name": "Zone Offroad",
        "latitude": "-32.04399044",
        "longitude": "115.97406733",
        "address_line_1": "Unit 1 \/ 1780 Albany Highway",
        "address_line_2": null,
        "city": "Kenwick",
        "state": "WA",
        "postal_code": "6107",
        "country": "Australia",
        "full_address": null,
        "phone": "08 9333 3734",
        "website": "http:\/\/www.zoneoffroad.com.au",
        "email": "sales@Zoneoffroad.com.au",
        "description": null,
        "image_url": "https:\/\/encrypted-tbn0.gstatic.com\/images?q=tbn:ANd9GcSmV22wzU5YbFOhqaGveO43GW-rcfM25ntnUvUYys3J1A&s",
        "filters": [],
        "custom_fields": []
    }
]